[
  {
    "Name": "BBB Parking Lot",
    "Alias": ["The Parking Lot", "Parking Lot"],
    "Category": "Services",
    "Artist Website": "",
    "Lat": 33.354693,
    "Long": -115.733349
  },

  {
    "Name": "San Litio (Saint Lithium)",
    "Alias": ["Saint Lithium", "San Litio"],
    "Address": "Corner of First Ave and Isle of Palms, on the way to Mars College",
    "Category": "Art Installation",
    "Lat": 33.354255,
    "Long": -115.725342
  },
  {
    "Name": "3D Therapy in Perspective",
    "Address": "3D. 3rd and D streets.",
    "Category": "Art Installation",
    "Lat": 33.352539,
    "Long": -115.730863
  },
  {
    "Name": "Curl",
    "Address": "Private property at 9536 Avenue D",
    "Category": "Art Installation",
    "Lat": 33.34911,
    "Long": -115.73023
  },
  {
    "Name": "Aperion",
    "Address": "9543 Avenue H",
    "Category": "Art Installation",
    "Lat": 33.34964,
    "Long": -115.72670
  },
  {
    "Name": "Atlantis Inn Collective",
    "Alias": ["Atlantis Inn", "The Atlantis Inn", "Atlantis"],
    "Address": "",
    "Category": "Venue",
    "Lat": 33.3489563,
    "Long": -115.73096
  },
  {
    "Name": "BBAC Center Bombay Beach Arts & Culture Center",
    "Label": "BBAC",
    "Address": "BBAC",
    "Category": "Community Hub",
    "Lat": 33.35322608152683, 
    "Long": -115.73036710443051
  },
  {
    "Name": "Bombay Beach Community Center",
    "Label": "BB Community Center",
    "Address": "",
    "Category": "Community Hub",
    "Lat": 33.3524,
    "Long": -115.73127
  },
  {
    "Name": "Food Court",
    "Label": "Food Court",
    "Address": "9590 Avenue C, Niland, CA 92257",
    "Category": "Services",
    "Lat": 33.35205154941772,
    "Long": -115.73165017707376
  },
  {
    "Name": "Beach: Lemonade Stand",
    "Alias": ["Lemonade Stand", "The Lemonade Stand"],
    "Address": "Near the Lemonade Stand on the Beach",
    "Category": "Art Installation",
    "Lat": 33.34749,
    "Long": -115.72943
  },
  {
    "Name": "Beach: Tesseract",
    "Alias": ["Tesseract", "The Tesseract"],
    "Address": "Tesseract lot. Tao already ok\u2019d",
    "Category": "Art Installation",
    "Lat": 33.34837,
    "Long": -115.7294
  },
  {
    "Name": "Beach: The Lighthouse",
    "Alias": ["The Lighthouse", "Lighthouse"],
    "Address": "",
    "Category": "Art Installation",
    "Lat": 33.3475925,
    "Long": -115.7294454
  },
  {
    "Name": "Beach: The Sub Club",
    "Label": "Sub Club",
    "Address": "Sub Club",
    "Alias": ["Sub Club", "The Sub Club"],
    "Category": "Venue",
    "Lat": 33.34825936,
    "Long": -115.7293901
  },
  {
    "Name": "Bombay Beach Museum of Bombay Beach",
    "Address": "Book display: Bombay Beach Museum of Bombay Beach (downstairs). Live reading: Bombay Beach Museum of Bombay Beach (upstairs).",
    "Category": "Venue",
    "Lat": 33.34898,
    "Long": -115.72611
  },
  {
    "Name": "Bombay Beach Yacht Club",
    "Alias": ["Yacht Club", "The Yacht Club"],
    "Address": "",
    "Category": "Venue",
    "Lat": 33.3531109,
    "Long": -115.7265341
  },
  {
    "Name": "Bombay Bliss Beach Club",
    "Alias": "Bliss Club",
    "Label": "Bliss Club",
    "Address": "Near Bliss Beach Club",
    "Category": "Venue",
    "Lat": 33.34735,
    "Long": -115.7278
  },
  {
    "Name": "Bombay Soleil",
    "Address": "Bombay Soleil, 2126 2nd St.",
    "Category": "Venue",
    "Lat": 33.3537679,
    "Long": -115.7276783
  },
  {
    "Name": "drakkar Noir",
    "Address": "Drakkar Noir 9556 avenue H at 4th",
    "Category": "Venue",
    "Lat": 33.35132793,
    "Long": -115.726207
  },
  {
    "Name": "Dream Demon",
    "Address": "",
    "Category": "Venue",
    "Lat": 33.35255,
    "Long": -115.72899
  },
  {
    "Name": "Foundation Foundation",
    "Alias": "Foundation",
    "Address": "Indoor Biennale gallery/group exhibition venue (assigned by BBB), Bombay Beach, CA 92233",
    "Category": "Venue",
    "Lat": 33.3500821,
    "Long": -115.7294487
  },
  {
    "Name": "Get Lost Gallery",
    "Alias": ["Rapha Lots", "Raphalots", "The Rapha Lots"],
    "Address": "The project utilizes a hybrid \"scattered-site\" model across Bombay Beach:  Central Hub & Gallery Venue: The Electric Lounge.  Satellite Archive Sites: 10 solar-powered beacon locations positioned on vacant lots and in collaboration with local mural sites throughout the town (specific coordinates to be finalized with the BBB placement team).",
    "Category": "Venue",
    "Lat": 33.34908,
    "Long": -115.73
  },
  {
    "Name": "Henderson Hall",
    "Label": "Henderson Hall",
    "Address": "Henderson Hall, 2&B, 2184 2nd",
    "Category": "Community Hub",
    "Lat": 33.353535060939144,
    "Long": -115.73266869554519
  },
  {
    "Name": "Horsefly Ranch",
    "Address": "",
    "Category": "Venue",
    "Lat": 33.35223,
    "Long": -115.72617
  },
  {
    "Name": "Jaybird Nest",
    "Address": "2169 2nd st?",
    "Category": "Venue",
    "Lat": 33.35329,
    "Long": -115.73125
  },
  {
    "Name": "Shadow Selfie",
    "Address": "",
    "Alias": ["Mean Mirror", "Roast Mirror"],
    "Artist Name": "Vincent Naples @drmbt",
    "Category": "Art Installation",
    "Abridged Project Text": "Shadow Selfie is a really mean mirror. One shouldn't be afraid of AI without a good reason.",
    "Lat": 33.349066945578805, 
    "Long": -115.73023714496527
  },
  {
    "Name": "Limbo Lounge Gallery",
    "Alias": ["Limbo Lounge", "The Limbo Lounge"],
    "Address": "",
    "Category": "Venue",
    "Lat": 33.351666302074975,
    "Long": -115.72865401978495
  },
  {
    "Name": "Little Little Italy",
    "Address": "little little italy",
    "Category": "Venue",
    "Lat": 33.3490766,
    "Long": -115.7256358
  },
  {
    "Name": "Neptune",
    "Address": "Neptune",
    "Category": "Venue",
    "Lat": 33.349540,
    "Long": -115.733670    
  },

  {
    "Name": "Polaroid Museum",
    "Address": "Polaroid Museum?",
    "Category": "Venue",
    "Lat": 33.352642411777914,  
    "Long": -115.72897533125128
  },
  {
    "Name": "PoP",
    "Address": "Salton Sea,  meet north of  \"The Ocean Remains\" installation Bombay Beach",
    "Category": "Venue",
    "Lat": 33.34930323781471,
    "Long": -115.73250480498766
  },
  {
    "Name": "Showtown",
    "Label": "Show Town",
    "Address": "",
    "Category": "Venue",
    "Lat": 33.34822,
    "Long": -115.73305
  },
  {
    "Name": "Oracle Booth",
    "Address": "",
    "Category": "Venue",
    "Lat": 33.3525,
    "Long": -115.72864
  },
  {
    "Name": "Star Sight Site",
    "Alias": ["Salton Sea Stellar Sky Society: Star Sight Site"],
    "Address": "",
    "Category": "Art Installation",
    "Lat": 33.3552040,
    "Long": -115.7238872
  },
  {
    "Name": "Temple to the Scientific Method",
    "Address": "Temple of the Scientific Method",
    "Category": "Venue",
    "Lat": 33.35263116,
    "Long": -115.7280142
  },
  {
    "Name": "The Beach",
    "Address": "On the beach, but we need help to find a good spot",
    "Category": "Venue",
    "Lat": 33.34747263,
    "Long": -115.7296055
  },
  {
    "Name": "The Bombay Beach Estates",
    "Label": "Estates",
    "Alias": ["Estates", "The Estates"],
    "Address": "",
    "Category": "Venue",
    "Lat": 33.3491044,
    "Long": -115.7279218
  },
  {
    "Name": "The Butterfly Pavillion",
    "Alias": "Butterfly Pavillion",
    "Address": "9550 Avenue E",
    "Category": "Venue",
    "Lat": 33.35017332280115,
    "Long": -115.72941114232911
  },
  {
    "Name": "The Escapes",
    "Alias": "Escapes",
    "Address": "Raphas' Lot",
    "Category": "Venue",
    "Lat": 33.34901578879867,
    "Long": -115.73026466688141
  },
  {
    "Name": "Downtown Palm Springs",
    "Address": "300 E Baristo Rd, Palm Springs, CA 92262",
    "Category": "Venue",
    "Lat": 33.81803061585426, 
    "Long": -116.50993292036817
  },
  {
    "Name": "The Bombay Beach Institute of Particle Physics, Metaphysics & International Relations",
    "Label": "The Institute",
    "Alias": ["Bombay Beach Institute", "The Institute"],
    "Address": "Robert Stivers Trailer",
    "Category": "Venue",
    "Lat": 33.3491567,
    "Long": -115.7266481
  },
  {
    "Name": "The Poetry House",
    "Label": "Poetry House",
    "Alias": "Poetry House",
    "Address": "The Poetry House",
    "Category": "Venue",
    "Lat": 33.349535,
    "Long": -115.726539
  },
  {
    "Name": "The Portal",
    "Address": "In front of the Portal.",
    "Category": "Art Installation",
    "Lat": 33.349284,
    "Long": -115.727051
  },
  {
    "Name": "The Sandbox",
    "Address": "stefa knows the address, ive already painted on the building",
    "Category": "Venue",
    "Lat": 33.34628,
    "Long": -115.72939
  },
  {
    "Name": "The Ski Inn",
    "Label": "Ski Inn",
    "Alias": "Ski Inn",
    "Address": "",
    "Category": "Local Business",
    "Lat": 33.3535831,
    "Long": -115.7335035
  },
  {
    "Name": "American Legion",
    "Label": "Legion",
    "Address": "",
    "Category": "Local Business",
    "Lat": 33.3547378,
    "Long": -115.725771
  },
  {
    "Name": "Chow Market",
    "Label": "Chowmart",
    "Address": "",
    "Category": "Local Business",
    "Lat": 33.3526499,
    "Long": -115.7337213
  },
  {
    "Name": "Zig Zag Plaza",
    "Label": "Zig Zag / Medic",
    "Address": "Worlds Tallest Ghosts, ZigZag Plaza",
    "Category": "Community Hub",
    "Lat": 33.34906278,
    "Long": -115.726117
  },
  {
    "Name": "Department of Redundancy Dept. (The Dord)",
    "Alias": ["Dord", "The Dord", "DORD", "The DORD"],
    "Address": "",
    "Category": "Venue",
    "Lat": 33.3489844,
    "Long": -115.728018
  },
  {
    "Name": "No Shoes",
    "Address": "",
    "Category": "Venue",
    "Lat": 33.3490894,
    "Long": -115.7269388
  },
  {
    "Name": "The Bombay Beach Drive-In",
    "Label": "Drive-In",
    "Alias": ["Drive-In", "The Drive-In"],
    "Address": "",
    "Category": "Venue",
    "Lat": 33.3517231,
    "Long": -115.7297369
  },
  {
    "Name": "Museum of Unwanted Architecture",
    "Alias": ["MUWA", "MoUA", "The Museum of Unwanted Architecture"],
    "Address": "",
    "Category": "Venue",
    "Lat": 33.34978,
    "Long": -115.726501
  },
  {
    "Name": "Cafe Bosna",
    "Address": "",
    "Category": "Venue",
    "Lat": 33.34928635,
    "Long": -115.7280227
  },
  {
    "Name": "Club 86",
    "Address": "",
    "Category": "Venue",
    "Lat": 33.34736236,
    "Long": -115.7294533
  },
  {
    "Name": "The Opera House",
    "Alias": ["Opera House", "The Opera House"],
    "Address": "",
    "Category": "Venue",
    "Lat": 33.349746,
    "Long": -115.7298048
  },
  {
    "Name": "Saturn",
    "Address": "",
    "Category": "Venue",
    "Lat": 33.35320877,
    "Long": -115.7313477
  },
  {
    "Name": "Salton Civilization Archeological Site",
    "Address": "",
    "Category": "Art Installation",
    "Lat": 33.3527071,
    "Long": -115.7312304
  },
  {
    "Name": "Angler Grove",
    "Address": "",
    "Category": "Art Installation",
    "Lat": 33.3517046,
    "Long": -115.7260541
  },
  {
    "Name": "Tesseract",
    "Address": "",
    "Category": "Art Installation",
    "Lat": 33.34837,
    "Long": -115.7294
  },
  {
    "Name": "The Last Resort",
    "Alias": ["Last Resort", "The Last Resort"],
    "Address": "",
    "Category": "Art Installation",
    "Lat": 33.35415658,
    "Long": -115.733772
  },
  {
    "Name": "Dead Sea Forest",
    "Address": "",
    "Category": "Art Installation",
    "Lat": 33.34584,
    "Long": -115.731181
  },
  {
    "Name": "Little Little Italy",
    "Address": "",
    "Category": "Venue",
    "Lat": 33.3490766,
    "Long": -115.7256358
  },
  {
    "Name": "Bombay Beach TVs",
    "Address": "",
    "Category": "Art Installation",
    "Lat": 33.3507758,
    "Long": -115.7268262
  },
  {
    "Name": "Bombay Beach International Space Station (previously Lodestar)",
    "Alias": ["Bombay Beach International Space Station", "Lodestar"],
    "Address": "",
    "Category": "Art Installation",
    "Lat": 33.354147,
    "Long": -115.726214
  },
  {
    "Name": "Bombay Beach Metro Station",
    "Alias": ["Metro Station"],
    "Address": "",
    "Category": "Art Installation",
    "Lat": 33.34825936,
    "Long": -115.72941
  },
  {
    "Name": "da Vinci Fish",
    "Address": "",
    "Category": "Art Installation",
    "Lat": 33.35318,
    "Long": -115.73053
  },
  {
    "Name": "The Lighthouse",
    "Address": "",
    "Category": "Art Installation",
    "Lat": 33.3475925,
    "Long": -115.7294454
  },
  {
    "Name": "The Swing",
    "Address": "",
    "Category": "Art Installation",
    "Lat": 33.345094,
    "Long": -115.7305223
  },
  {
    "Name": "HYBYCOZO sculpture",
    "Address": "",
    "Category": "Art Installation",
    "Lat": 33.346458,
    "Long": -115.7312689
  },
  {
    "Name": "TOXICON",
    "Address": "",
    "Category": "Art Installation",
    "Lat": 33.3496555,
    "Long": -115.7308294
  },
  {
    "Name": "Shig Memorial Pyramids",
    "Alias": "Shig's Memorials",
    "Address": "",
    "Category": "Art Installation",
    "Lat": 33.347844,
    "Long": -115.7256179
  },
  {
    "Name": "Venus of Salton",
    "Address": "",
    "Category": "Art Installation",
    "Lat": 33.348968,
    "Long": -115.726639
  },
  {
    "Name": "SOS",
    "Address": "",
    "Category": "Art Installation",
    "Lat": 33.3453334,
    "Long": -115.7268305
  },
  {
    "Name": "The Crane",
    "Address": "",
    "Category": "Art Installation",
    "Lat": 33.3474,
    "Long": -115.726175
  },
  {
    "Name": "Train Koan",
    "Address": "",
    "Category": "Art Installation",
    "Lat": 33.3484501,
    "Long": -115.7254687
  },
  {
    "Name": "World's Tallest Ghosts",
    "Alias": ["The World's Tallest Ghosts Reassessed", "The World’s Tallest Ghosts Reassessed"],
    "Address": "",
    "Category": "Art Installation",
    "Lat": 33.3493065,
    "Long": -115.7258868
  },
  {
    "Name": "Sea Gate Wind Chimes",
    "Address": "",
    "Category": "Art Installation",
    "Lat": 33.3475374,
    "Long": -115.729719
  },
  {
    "Name": "Fish skeleton",
    "Address": "",
    "Category": "Art Installation",
    "Lat": 33.34515,
    "Long": -115.72925
  },
  {
    "Name": "BB Country Club",
    "Address": "",
    "Category": "Art Installation",
    "Lat": 33.349701061835376,
    "Long": -115.73367222423228
  },
  {
    "Name": "The NEST",
    "Address": "",
    "Category": "Art Installation",
    "Lat": 33.350034,
    "Long": -115.726441
  },
  {
    "Name": "Walking Dreams of Twigs",
    "Address": "",
    "Category": "Art Installation",
    "Lat": 33.3492,
    "Long": -115.7262
  },
  {
    "Name": "Missing Link",
    "Address": "",
    "Category": "Art Installation",
    "Lat": 33.347361,
    "Long": -115.733389,
    "Artist Name": "Frauke Huber & Uwe H. Martin",
    "Abridged Project Text": "Missing Link is a tall, vertical aquarium tube installed on the beach in Bombay Beach at the shore of the Salton Sea in Southern California. It is filled with fresh, clean water distilled from the Salton Sea. Missing Link is a testimony to the drying lake. And a summoning of what is needed to revive it. The permanent installation invites the public to reflect on what we value and how easily it is lost."
  },
  {
    "Name": "Bombay North",
    "Address": "",
    "Category": "Venue",
    "Lat": 33.35503355763313, 
    "Long": -115.73334893263541
  },
  {
    "Name": "Mapping the Sacrifice Zone",
    "Address": "",
    "Category": "Art Installation",
    "Lat": 33.352361,
    "Long": -115.731389
  },
  {
    "Name": "Westlandia Desert Oasis",
    "Alias": ["Westlandia", "The Westlandia Desert Oasis"],
    "Address": "",
    "Category": "Art Installation",
    "Lat": 33.348581,
    "Long": -115.72893
  },
  {
    "Name": "Grotto Heaven (@bliss club)",
    "Alias": ["Grotto Heaven", "The Grotto Heaven"],
    "Address": "",
    "Category": "Art Installation",
    "Lat": 33.34809,
    "Long": -115.728643
  },
  {
    "Name": "SYZYGY",
    "Address": "",
    "Category": "Art Installation",
    "Abridged Project Text":"SYZYGY is an ode to the land, an act of reverence, a centering on metabolic co-regulation with the ground itself—with its mineral bodies, its residues, its living and decaying matter.", 
    "Lat": 33.349667,
    "Long": -115.726806
  },
  {
    "Name": "Wings of Desire and Divine Discontent",
    "Address": "",
    "Category": "Art Installation",
    "Lat": 33.349076,
    "Long": -115.72678
  },
  {
    "Name": "Art Basil Bombay Beach",
    "Alias": ["Art Basil | Bombay"],
    "Address": "",
    "Category": "Art Installation",
    "Lat": 33.349199,
    "Long": -115.730354
  },
  {
    "Name": "Goblin Camp",
    "Address": "",
    "Category": "Art Installation",
    "Lat": 33.3491032,
    "Long": -115.7299037
  },
  {
    "Name": "Mamacita Junior the 3rd",
    "Address": "",
    "Category": "Art Installation",
    "Lat": 33.347695,
    "Long": -115.732962
  },
  {
    "Name": "Birth, Life and Becoming",
    "Address": "",
    "Category": "Art Installation",
    "Lat": 33.3531868,
    "Long": -115.7312113
  },
  {
    "Name": "Sandy Shores Trailer Park",
    "Address": "",
    "Category": "Art Installation",
    "Lat": 33.34955605,
    "Long": -115.731857
  },
  {
    "Name": "Grounded: Loss at the Salton Sea",
    "Address": "",
    "Category": "Art Installation",
    "Artist Name": "Andee Strickland",
    "Abridged Project Text": "'Grounded: Loss at the Salton Sea' is a site-specific art installation at the Bombay Beach Marina that directly addresses the dramatic water loss and environmental decline of the Salton Sea.\nThe project will feature a boat cut in half widthwise and partially ~ bedded into the dry marina basin, positionea as if wrecked and permanently stranded. \n\nThe work transforms the abandoned marina into a powerful visual statement about disappearance, environmental fragility, and the consequences of water depletion.",
    "Lat": 33.34777,
    "Long": -115.73263
  },
  {
    "Name": "Artemis makes a house call",
    "Address": "",
    "Category": "Art Installation",
    "Lat": 33.34903,
    "Long": -115.72653
  },
  {
    "Name": "Sea Ya In Hell",
    "Address": "",
    "Category": "Art Installation",
    "Lat": 33.34999,
    "Long": -115.72944
  },
  {
    "Name": "While It Lasts",
    "Address": "",
    "Category": "Art Installation",
    "Lat": 33.344318,
    "Long": -115.730383
  },
  {
    "Name": "WATER HOLE - Free Filtered Water For All",
    "Address": "",
    "Category": "Services",
    "Lat": 33.3536806,
    "Long": -115.7261436
  },
  {
    "Name": "GRUB",
    "Label": "GRUB",
    "Address": "",
    "Category": "Venue",
    "Lat": 33.3536806,
    "Long": -115.7261436
  },
  {
    "Name": "Eye of God",
    "Address": "",
    "Category": "Art Installation",
    "Lat": 33.3536806,
    "Long": -115.7261436
  },
  {
    "Name": "FUGU",
    "Address": "",
    "Category": "Art Installation",
    "Lat": 33.3536806,
    "Long": -115.7261436
  },
  {
    "Name": "Mirage",
    "Address": "",
    "Category": "Art Installation",
    "Lat": 33.35171,
    "Long": -115.725453
  },
  {
    "Name": "Bombay Bathroom Club - Public Restroom",
    "Alias": ["Bombay Bathroom Club", "The Bombay Bathroom Club"],
    "Address": "",
    "Category": "Services",
    "Lat": 33.35326262,
    "Long": -115.7269229
  },
  {
    "Name": "KDEZ RADIO TRAILER",
    "Alias": ["Radio Trailer", "The KDEZ Radio Trailer", "KDEZ"],
    "Address": "",
    "Category": "Venue",
    "Lat": 33.349076,
    "Long": -115.72678
  },
  {
    "Name": "Sothebys",
    "Alias": "Sotheby's Real Estate Office",
    "Label": "Sotheby's",
    "Address": "",
    "Category": "Venue",
    "Lat": 33.349629,
    "Long": -115.727411
  },
  {
    "Name": "Food Court",
    "Label": "Food Court",
    "Address": "",
    "Category": "Services",
    "Lat": 33.35236,
    "Long": -115.731427
  },
  {
    "Name": "Cult of Reality's Grhastha Matha",
    "Address": "",
    "Category": "Venue",
    "Lat": 33.35245,
    "Long": -115.727152
  },
  {
    "Name": "Kevin's Lit Landing",
    "Alias": ["Lit Landing"],
    "Address": "",
    "Category": "Venue",
    "Lat": 33.34458,
    "Long": -115.727328
  },
  {
    "Name": "Skull Pony",
    "Address": "",
    "Category": "Venue",
    "Lat": 33.350585,
    "Long": -115.729699
  },
  {
    "Name": "The Tradewinds",
    "Label": "Tradewinds",
    "Address": "",
    "Category": "Venue",
    "Lat": 33.349064,
    "Long": -115.7329
  },
  {
    "Name": "Love Buggin",
    "Address": "",
    "Category": "Venue",
    "Lat": 33.354242,
    "Long": -115.732372
  },
  {
    "Name": "Paparazzi Plaza",
    "Address": "",
    "Category": "Venue",
    "Lat": 33.350364,
    "Long": -115.730656
  },
  {
    "Name": "Globalschism",
    "Address": "The Beach",
    "Category": "Venue",
    "Lat": 33.347656,
    "Long": -115.730933
  },
  {
    "Name": "Sea State",
    "Address": "2115 2nd st.",
    "Category": "Art Installation",
    "Artist": "Janenne Willis",
    "Lat": 33.35297428642218,
    "Long": -115.72669907314031
  },
  {
    "Name": "The Playground",
    "Address": "2194 3rd Street, Niland",
    "Category": "Venue",
    "Lat": 33.35261111111111,
    "Long": -115.73344444444444
  },
  {
    "Name": "Jackson's Corner",
    "Address": "9592 Ave A, Niland",
    "Category": "Venue",
    "Lat": 33.352833333333336,
    "Long": -115.73380555555556
  },
  {
    "Name": "Muzik's AMuZe",
    "Address": "9566 Ave A, Niland",
    "Category": "Venue",
    "Lat": 33.351,
    "Long": -115.73366666666666
  },
  {
    "Name": "Mz.Aqua's Musik Museum",
    "Label": "Musik Museum",
    "Category": "Venue",
    "Lat": 33.35177984793379,
    "Long": -115.73371974211096
  },
  {
    "Name": "2DEy",
    "Address": "2158 2nd Street, Niland",
    "Category": "Venue",
    "Lat": 33.35377777777778,
    "Long": -115.73016666666666
  },
  {
    "Name": "Josiah's Playground",
    "Address": "9572 Ave D, Niland",
    "Category": "Venue",
    "Lat": 33.3513485,
    "Long": -115.73037780555556
  },
  {
    "Name": "Playalotlot",
    "Address": "9582 Ave D, Niland",
    "Category": "Venue",
    "Lat": 33.3519835,
    "Long": -115.73068769444444
  },
  {
    "Name": "Nona JazmanMan Grove",
    "Address": "2144B 3rd Street, Niland",
    "Category": "Venue",
    "Lat": 33.352743,
    "Long": -115.729062
  },
  {
    "Name": "Herbstyle",
    "Address": "9542 F Ave, Niland",
    "Category": "Venue",
    "Lat": 33.349672274131386,
    "Long": -115.7282716
  },
  {
    "Name": "SweetPeas Travel Place",
    "Address": "9575 Ave G, Niland",
    "Category": "Venue",
    "Lat": 33.351706,
    "Long": -115.727732
  },
  {
    "Name": "The Finish Line",
    "Address": "1 Ave H, adjacent",
    "Category": "Venue",
    "Lat": 33.35186111111111,
    "Long": -115.72661111111111
  },
  {
    "Name": "BWEE",
    "Address": "9590 Ave E, Niland",
    "Category": "Venue",
    "Lat": 33.352162,
    "Long": -115.729303
  },
  {
    "Name": "Snow Cones",
    "Address": "2194 3rd Street, Niland",
    "Category": "Art Installation",
    "location_internal": "The Playground"
  },
  {
    "Name": "Silk 60",
    "Address": "9592 Ave A, Niland",
    "Category": "Art Installation",
    "location_internal": "Jackson's Corner"
  },
  {
    "Name": "Moon Talk",
    "Address": "9566 Ave A, Niland",
    "Category": "Art Installation",
    "location_internal": "Muzik's AMuZe"
  },
  {
    "Name": "The 2DEy Show",
    "Address": "2158 2nd Street, Niland",
    "Category": "Art Installation",
    "location_internal": "2DEy"
  },
  {
    "Name": "2Geosspheres",
    "Address": "9572 Ave D, Niland",
    "Category": "Art Installation",
    "location_internal": "Josiah's Playground"
  },
  {
    "Name": "TemetTurtle",
    "Address": "9572 Ave D, Niland",
    "Category": "Art Installation",
    "location_internal": "Josiah's Playground"
  },
  {
    "Name": "MarzoMoto",
    "Address": "9572 Ave D, Niland",
    "Category": "Art Installation",
    "location_internal": "Josiah's Playground"
  },
  {
    "Name": "For-D",
    "Address": "9572 Ave D, Niland",
    "Category": "Art Installation",
    "location_internal": "Josiah's Playground"
  },
  {
    "Name": "NoMamman & PurDoDo",
    "Address": "9582 Ave D, Niland",
    "Category": "Art Installation",
    "location_internal": "Playalotlot"
  },
  {
    "Name": "NoParPe",
    "Address": "9590 Ave E, Niland",
    "Category": "Art Installation",
    "location_internal": "BWEE"
  },
  {
    "Name": "Friendszy",
    "Address": "9590 Ave E, Niland",
    "Category": "Art Installation",
    "location_internal": "BWEE"
  },
  {
    "Name": "ChipKubo & FlashKubo",
    "Address": "2144B 3rd Street, Niland",
    "Category": "Art Installation",
    "location_internal": "Nona JazmanMan Grove"
  },
  {
    "Name": "Courtnay Alexander",
    "Address": "9542 F Ave, Niland",
    "Category": "Art Installation",
    "location_internal": "Herbstyle"
  },
  {
    "Name": "GeeWizz",
    "Address": "9575 Ave G, Niland",
    "Category": "Art Installation",
    "location_internal": "SweetPeas Travel Place"
  },
  {
    "Name": "The Finish Line",
    "Address": "1 Ave H, adjacent",
    "Category": "Art Installation",
    "location_internal": "The Finish Line"
  },
  {
    "Name": "Party of 5",
    "Address": "9540 Ave B, Niland",
    "Category": "Art Installation",
    "location_internal": "PoP"
  },
  {
    "Name": "StarBal",
    "Address": "9540 Ave B, Niland",
    "Category": "Art Installation",
    "location_internal": "PoP"
  },
  {
    "Name": "Fishes and Loaves",
    "Address": "9540 Ave B, Niland",
    "Category": "Art Installation",
    "location_internal": "PoP"
  },
  {
    "Name": "Teamwork",
    "Address": "9540 Ave B, Niland",
    "Category": "Art Installation",
    "location_internal": "PoP"
  },
  {
    "Name": "Bluturns",
    "Address": "9540 Ave B, Niland",
    "Category": "Art Installation",
    "location_internal": "PoP"
  },
  {
    "Name": "Sentinels",
    "Address": "9540 Ave B, Niland",
    "Category": "Art Installation",
    "location_internal": "PoP"
  }
]
