[
  {
    "Name": "1st & Aisle of Palms",
    "Lat": 33.354255,
    "Long": -115.725342
  },
  {
    "Name": "3D",
    "Lat": "",
    "Long": ""
  },
  {
    "Name": "9536 Avenue D",
    "Lat": 33.34911,
    "Long": -115.73023
  },
  {
    "Name": "9543 Avenue H",
    "Lat": 33.34981,
    "Long": -115.72666
  },
  {
    "Name": "Atlantis Inn Collective",
    "Lat": 33.3489563,
    "Long": -115.73096
  },
  {
    "Name": "BBAC Center Bombay Beach Arts & Culture Center",
    "Lat": 33.3532565,
    "Long": -115.7305994
  },
  {
    "Name": "Beach: Lemonade Stand",
    "Lat": 33.34749,
    "Long": -115.72943
  },
  {
    "Name": "Beach: Tesseract",
    "Lat": 33.34837,
    "Long": -115.7294
  },
  {
    "Name": "Beach: The Lighthouse",
    "Lat": 33.3475925,
    "Long": -115.7294454
  },
  {
    "Name": "Beach: The Sub Club/The Underground",
    "Lat": 33.34825936,
    "Long": -115.7293901
  },
  {
    "Name": "Bombay Beach Museum of Bombay Beach",
    "Lat": 33.34898,
    "Long": -115.72611
  },
  {
    "Name": "Bombay Beach Yacht Club",
    "Lat": 33.3531109,
    "Long": -115.7265341
  },
  {
    "Name": "Bombay Bliss Beach Club",
    "Lat": 33.34735,
    "Long": -115.72780
  },
  {
    "Name": "Bombay North",
    "Lat": 33.3485,
    "Long": -115.71191666666667
  },
  {
    "Name": "Bombay Soleil",
    "Lat": 33.3537679,
    "Long": -115.7276783
  },
  {
    "Name": "drakkar Noir",
    "Lat": 33.35132793,
    "Long": -115.726207
  },
  {
    "Name": "Dream Demon",
    "Lat": 33.35255,
    "Long": -115.72899
  },
  {
    "Name": "Foundation Foundation",
    "Lat": 33.3500821,
    "Long": -115.7294487
  },
  {
    "Name": "Get Lost Gallery",
    "Lat": 33.34908,
    "Long": -115.73
  },
  {
    "Name": "Henderson Hall",
    "Lat": "",
    "Long": ""
  },
  {
    "Name": "Horsefly Ranch",
    "Lat": 33.35223,
    "Long": -115.72617
  },
  {
    "Name": "Jaybird Nest",
    "Lat": 33.35329,
    "Long": -115.73125
  },
  {
    "Name": "Limbo Lounge Gallery",
    "Lat": 33.35374,
    "Long": -115.72753
  },
  {
    "Name": "Little Little Italy",
    "Lat": 33.3490766,
    "Long": -115.7256358
  },
  {
    "Name": "Neptune",
    "Lat": 33.349543,
    "Long": -115.731895
  },
  {
    "Name": "No Shoes + Dry West — Moonscape",
    "Lat": 33.34911,
    "Long": -115.726836
  },
  {
    "Name": "Polaroid Museum",
    "Lat": 33.35316389,
    "Long": -115.7289723
  },
  {
    "Name": "PoP",
    "Lat": 33.34930323781471,
    "Long": -115.73250480498766
  },
  {
    "Name": "Pythia",
    "Lat": 33.352717,
    "Long": -115.7286839
  },
  {
    "Name": "Shed",
    "Lat": "",
    "Long": ""
  },
  {
    "Name": "Showtown",
    "Lat": 33.34822,
    "Long": -115.73305
  },
  {
    "Name": "Temple to the Scientific Method",
    "Lat": 33.35263116,
    "Long": -115.7280142
  },
  {
    "Name": "The Beach",
    "Lat": 33.344318,
    "Long": -115.730383
  },
  {
    "Name": "The Bombay Beach Estates",
    "Lat": 33.3489844,
    "Long": -115.7279718
  },
  {
    "Name": "The Butterfly Pavillion",
    "Lat": 33.35017332280115,
    "Long": 115.72941114232911
  },
  {
    "Name": "The Escapes",
    "Lat": 33.3490043,
    "Long": -115.7298246
  },
  {
    "Name": "The Institute",
    "Lat": 33.3491567,
    "Long": -115.7266481
  },
  {
    "Name": "The Poetry House",
    "Lat": 33.349535,
    "Long": -115.726539
  },
  {
    "Name": "The Portal",
    "Lat": 33.349284,
    "Long": -115.727051
  },
  {
    "Name": "The Sandbox",
    "Lat": 33.34628,
    "Long": -115.72939
  },
  {
    "Name": "The Ski Inn",
    "Lat": 33.3535831,
    "Long": -115.7335035
  },
  {
    "Name": "Vulcan",
    "Lat": 33.35042,
    "Long": -115.72951
  },
  {
    "Name": "Zig Zag Plaza",
    "Lat": 33.34906278,
    "Long": -115.726117
  }
]
